{"type":"FeatureCollection","features":[{"type":"Feature","properties":{"CityName":"Jacksonville, North Carolina","City":"Jacksonville","State":" North Carolina","PercLossBy_2011":3.72,"PercLossBy_2012":2.22,"PercLossBy_2013":3.13,"PercLossBy_2014":"5.00","PercLossBy_2015":4.92,"PercLossBy_2016":6.95,"PercLossBy_2017":6.95},"geometry":{"type":"Point","coordinates":[-77.430241,34.754052]}},{"type":"Feature","properties":{"CityName":"Charleston, West Virginia","City":"Charleston","State":" West Virginia","PercLossBy_2011":"0.60","PercLossBy_2012":0.86,"PercLossBy_2013":1.25,"PercLossBy_2014":2.28,"PercLossBy_2015":"3.60","PercLossBy_2016":4.89,"PercLossBy_2017":6.53},"geometry":{"type":"Point","coordinates":[-81.633281,38.3506]}},{"type":"Feature","properties":{"CityName":"Rocky Mount, North Carolina","City":"Rocky Mount","State":" North Carolina","PercLossBy_2011":0.46,"PercLossBy_2012":1.59,"PercLossBy_2013":2.32,"PercLossBy_2014":3.03,"PercLossBy_2015":4.49,"PercLossBy_2016":4.71,"PercLossBy_2017":"5.50"},"geometry":{"type":"Point","coordinates":[-77.795695,35.942383]}},{"type":"Feature","properties":{"CityName":"Albany, Georgia","City":"Albany","State":" Georgia","PercLossBy_2011":-0.61,"PercLossBy_2012":-0.14,"PercLossBy_2013":1.33,"PercLossBy_2014":1.91,"PercLossBy_2015":3.22,"PercLossBy_2016":4.48,"PercLossBy_2017":5.48},"geometry":{"type":"Point","coordinates":[-84.155681,31.578206]}},{"type":"Feature","properties":{"CityName":"Flint, Michigan","City":"Flint","State":" Michigan","PercLossBy_2011":0.79,"PercLossBy_2012":"1.80","PercLossBy_2013":2.55,"PercLossBy_2014":3.41,"PercLossBy_2015":"4.20","PercLossBy_2016":4.94,"PercLossBy_2017":5.47},"geometry":{"type":"Point","coordinates":[-83.723602,43.017177]}},{"type":"Feature","properties":{"CityName":"Detroit, Michigan","City":"Detroit","State":" Michigan","PercLossBy_2011":"0.90","PercLossBy_2012":1.64,"PercLossBy_2013":2.84,"PercLossBy_2014":4.16,"PercLossBy_2015":4.61,"PercLossBy_2016":"5.00","PercLossBy_2017":5.34},"geometry":{"type":"Point","coordinates":[-83.056737,42.348664]}},{"type":"Feature","properties":{"CityName":"Saginaw, Michigan","City":"Saginaw","State":" Michigan","PercLossBy_2011":0.71,"PercLossBy_2012":1.29,"PercLossBy_2013":2.19,"PercLossBy_2014":3.14,"PercLossBy_2015":4.25,"PercLossBy_2016":"4.90","PercLossBy_2017":5.27},"geometry":{"type":"Point","coordinates":[-83.949036,43.420039]}},{"type":"Feature","properties":{"CityName":"Gary, Indiana","City":"Gary","State":" Indiana","PercLossBy_2011":0.63,"PercLossBy_2012":1.27,"PercLossBy_2013":2.01,"PercLossBy_2014":2.65,"PercLossBy_2015":3.67,"PercLossBy_2016":4.51,"PercLossBy_2017":5.24},"geometry":{"type":"Point","coordinates":[-87.337137,41.602129]}},{"type":"Feature","properties":{"CityName":"Decatur, Illinois","City":"Decatur","State":" Illinois","PercLossBy_2011":0.26,"PercLossBy_2012":0.88,"PercLossBy_2013":1.52,"PercLossBy_2014":2.52,"PercLossBy_2015":3.61,"PercLossBy_2016":4.38,"PercLossBy_2017":5.21},"geometry":{"type":"Point","coordinates":[-88.952415,39.845416]}},{"type":"Feature","properties":{"CityName":"Hammond, Indiana","City":"Hammond","State":" Indiana","PercLossBy_2011":0.66,"PercLossBy_2012":1.35,"PercLossBy_2013":2.13,"PercLossBy_2014":2.67,"PercLossBy_2015":3.69,"PercLossBy_2016":4.32,"PercLossBy_2017":5.07},"geometry":{"type":"Point","coordinates":[-87.500043,41.583366]}},{"type":"Feature","properties":{"CityName":"Shreveport, Louisiana","City":"Shreveport","State":" Louisiana","PercLossBy_2011":-0.43,"PercLossBy_2012":-0.48,"PercLossBy_2013":0.44,"PercLossBy_2014":1.51,"PercLossBy_2015":2.11,"PercLossBy_2016":3.23,"PercLossBy_2017":"4.40"},"geometry":{"type":"Point","coordinates":[-93.765194,32.522183]}},{"type":"Feature","properties":{"CityName":"Erie, Pennsylvania","City":"Erie","State":" Pennsylvania","PercLossBy_2011":0.21,"PercLossBy_2012":0.43,"PercLossBy_2013":1.19,"PercLossBy_2014":"2.00","PercLossBy_2015":2.67,"PercLossBy_2016":3.41,"PercLossBy_2017":4.31},"geometry":{"type":"Point","coordinates":[-80.085242,42.129066]}},{"type":"Feature","properties":{"CityName":"Lawton, Oklahoma","City":"Lawton","State":" Oklahoma","PercLossBy_2011":-0.28,"PercLossBy_2012":-0.34,"PercLossBy_2013":1.37,"PercLossBy_2014":1.55,"PercLossBy_2015":2.46,"PercLossBy_2016":4.18,"PercLossBy_2017":4.23},"geometry":{"type":"Point","coordinates":[-98.39033,34.608685]}},{"type":"Feature","properties":{"CityName":"Rockford, Illinois","City":"Rockford","State":" Illinois","PercLossBy_2011":0.69,"PercLossBy_2012":1.25,"PercLossBy_2013":1.69,"PercLossBy_2014":2.48,"PercLossBy_2015":3.07,"PercLossBy_2016":"3.50","PercLossBy_2017":3.99},"geometry":{"type":"Point","coordinates":[-89.093966,42.271395]}},{"type":"Feature","properties":{"CityName":"Jackson, Mississippi","City":"Jackson","State":" Mississippi","PercLossBy_2011":-0.78,"PercLossBy_2012":"-0.60","PercLossBy_2013":0.49,"PercLossBy_2014":1.03,"PercLossBy_2015":1.71,"PercLossBy_2016":2.72,"PercLossBy_2017":3.89},"geometry":{"type":"Point","coordinates":[-90.184769,32.299038]}},{"type":"Feature","properties":{"CityName":"Toledo, Ohio","City":"Toledo","State":" Ohio","PercLossBy_2011":0.59,"PercLossBy_2012":1.37,"PercLossBy_2013":"1.70","PercLossBy_2014":2.26,"PercLossBy_2015":2.57,"PercLossBy_2016":2.92,"PercLossBy_2017":3.66},"geometry":{"type":"Point","coordinates":[-83.512728,41.678675]}},{"type":"Feature","properties":{"CityName":"Youngs, Ohio","City":"Youngs","State":" Ohio","PercLossBy_2011":"0.50","PercLossBy_2012":1.25,"PercLossBy_2013":2.15,"PercLossBy_2014":2.62,"PercLossBy_2015":3.29,"PercLossBy_2016":3.81,"PercLossBy_2017":3.44},"geometry":{"type":"Point","coordinates":[-83.206016,38.898684]}},{"type":"Feature","properties":{"CityName":"Dearborn, Michigan","City":"Dearborn","State":" Michigan","PercLossBy_2011":0.75,"PercLossBy_2012":1.09,"PercLossBy_2013":1.96,"PercLossBy_2014":2.07,"PercLossBy_2015":2.57,"PercLossBy_2016":3.09,"PercLossBy_2017":3.43},"geometry":{"type":"Point","coordinates":[-83.176314,42.32226]}},{"type":"Feature","properties":{"CityName":"Lakewood, Ohio","City":"Lakewood","State":" Ohio","PercLossBy_2011":"0.70","PercLossBy_2012":"1.20","PercLossBy_2013":1.55,"PercLossBy_2014":1.87,"PercLossBy_2015":"2.40","PercLossBy_2016":2.94,"PercLossBy_2017":3.42},"geometry":{"type":"Point","coordinates":[-81.798191,41.481993]}},{"type":"Feature","properties":{"CityName":"St. Louis, Missouri","City":"St. Louis","State":" Missouri","PercLossBy_2011":0.08,"PercLossBy_2012":"0.00","PercLossBy_2013":0.25,"PercLossBy_2014":0.51,"PercLossBy_2015":0.97,"PercLossBy_2016":1.95,"PercLossBy_2017":3.36},"geometry":{"type":"Point","coordinates":[-90.197889,38.627273]}},{"type":"Feature","properties":{"CityName":"Niagara Falls, New York","City":"Niagara Falls","State":" New York","PercLossBy_2011":0.47,"PercLossBy_2012":0.92,"PercLossBy_2013":1.29,"PercLossBy_2014":1.77,"PercLossBy_2015":2.39,"PercLossBy_2016":"2.90","PercLossBy_2017":3.35},"geometry":{"type":"Point","coordinates":[-79.030262,43.103093]}},{"type":"Feature","properties":{"CityName":"Dearborn Heights, Michigan","City":"Dearborn Heights","State":" Michigan","PercLossBy_2011":0.68,"PercLossBy_2012":1.01,"PercLossBy_2013":1.85,"PercLossBy_2014":1.96,"PercLossBy_2015":2.44,"PercLossBy_2016":"2.90","PercLossBy_2017":3.26},"geometry":{"type":"Point","coordinates":[-83.273263,42.336982]}},{"type":"Feature","properties":{"CityName":"Camden, New Jersey","City":"Camden","State":" New Jersey","PercLossBy_2011":-0.38,"PercLossBy_2012":-0.06,"PercLossBy_2013":0.37,"PercLossBy_2014":1.03,"PercLossBy_2015":1.54,"PercLossBy_2016":3.24,"PercLossBy_2017":3.22},"geometry":{"type":"Point","coordinates":[-75.119891,39.94484]}},{"type":"Feature","properties":{"CityName":"Montgomery, Alabama","City":"Montgomery","State":" Alabama","PercLossBy_2011":0.21,"PercLossBy_2012":0.88,"PercLossBy_2013":1.65,"PercLossBy_2014":2.13,"PercLossBy_2015":2.34,"PercLossBy_2016":"2.70","PercLossBy_2017":2.97},"geometry":{"type":"Point","coordinates":[-86.300648,32.366966]}},{"type":"Feature","properties":{"CityName":"Canton, Ohio","City":"Canton","State":" Ohio","PercLossBy_2011":0.34,"PercLossBy_2012":0.39,"PercLossBy_2013":0.72,"PercLossBy_2014":1.08,"PercLossBy_2015":1.71,"PercLossBy_2016":2.43,"PercLossBy_2017":2.96},"geometry":{"type":"Point","coordinates":[-81.378444,40.798952]}},{"type":"Feature","properties":{"CityName":"Parma, Ohio","City":"Parma","State":" Ohio","PercLossBy_2011":"0.60","PercLossBy_2012":1.02,"PercLossBy_2013":"1.30","PercLossBy_2014":1.65,"PercLossBy_2015":1.81,"PercLossBy_2016":2.31,"PercLossBy_2017":2.83},"geometry":{"type":"Point","coordinates":[-81.735569,41.38224]}},{"type":"Feature","properties":{"CityName":"Taylor, Michigan","City":"Taylor","State":" Michigan","PercLossBy_2011":0.61,"PercLossBy_2012":0.92,"PercLossBy_2013":1.76,"PercLossBy_2014":"1.60","PercLossBy_2015":2.07,"PercLossBy_2016":2.45,"PercLossBy_2017":"2.70"},"geometry":{"type":"Point","coordinates":[-83.269651,42.240872]}},{"type":"Feature","properties":{"CityName":"Livonia, Michigan","City":"Livonia","State":" Michigan","PercLossBy_2011":0.56,"PercLossBy_2012":0.83,"PercLossBy_2013":1.57,"PercLossBy_2014":1.59,"PercLossBy_2015":"2.00","PercLossBy_2016":2.43,"PercLossBy_2017":2.69},"geometry":{"type":"Point","coordinates":[-83.35271,42.36837]}},{"type":"Feature","properties":{"CityName":"Cleveland, Ohio","City":"Cleveland","State":" Ohio","PercLossBy_2011":0.82,"PercLossBy_2012":1.11,"PercLossBy_2013":1.12,"PercLossBy_2014":1.34,"PercLossBy_2015":1.76,"PercLossBy_2016":2.15,"PercLossBy_2017":2.64},"geometry":{"type":"Point","coordinates":[-81.693445,41.505161]}},{"type":"Feature","properties":{"CityName":"Westland, Michigan","City":"Westland","State":" Michigan","PercLossBy_2011":0.58,"PercLossBy_2012":0.85,"PercLossBy_2013":1.69,"PercLossBy_2014":1.74,"PercLossBy_2015":2.12,"PercLossBy_2016":2.43,"PercLossBy_2017":2.62},"geometry":{"type":"Point","coordinates":[-83.400532,42.323806]}},{"type":"Feature","properties":{"CityName":"Utica, New York","City":"Utica","State":" New York","PercLossBy_2011":0.24,"PercLossBy_2012":0.49,"PercLossBy_2013":0.72,"PercLossBy_2014":1.26,"PercLossBy_2015":1.84,"PercLossBy_2016":"2.40","PercLossBy_2017":2.53},"geometry":{"type":"Point","coordinates":[-75.232664,43.100903]}},{"type":"Feature","properties":{"CityName":"Decatur, Alabama","City":"Decatur","State":" Alabama","PercLossBy_2011":-0.13,"PercLossBy_2012":0.03,"PercLossBy_2013":"0.70","PercLossBy_2014":1.06,"PercLossBy_2015":1.51,"PercLossBy_2016":2.16,"PercLossBy_2017":2.52},"geometry":{"type":"Point","coordinates":[-87.051507,34.61881]}},{"type":"Feature","properties":{"CityName":"Springfield, Ohio","City":"Springfield","State":" Ohio","PercLossBy_2011":0.47,"PercLossBy_2012":0.78,"PercLossBy_2013":1.14,"PercLossBy_2014":1.38,"PercLossBy_2015":1.88,"PercLossBy_2016":2.76,"PercLossBy_2017":2.25},"geometry":{"type":"Point","coordinates":[-83.808817,39.924227]}},{"type":"Feature","properties":{"CityName":"Mobile, Alabama","City":"Mobile","State":" Alabama","PercLossBy_2011":"0.30","PercLossBy_2012":0.41,"PercLossBy_2013":0.59,"PercLossBy_2014":0.89,"PercLossBy_2015":1.21,"PercLossBy_2016":1.54,"PercLossBy_2017":2.22},"geometry":{"type":"Point","coordinates":[-88.043054,30.694357]}},{"type":"Feature","properties":{"CityName":"Muncie, Indiana","City":"Muncie","State":" Indiana","PercLossBy_2011":-0.27,"PercLossBy_2012":0.66,"PercLossBy_2013":0.72,"PercLossBy_2014":0.84,"PercLossBy_2015":1.47,"PercLossBy_2016":1.81,"PercLossBy_2017":2.21},"geometry":{"type":"Point","coordinates":[-85.386511,40.193668]}},{"type":"Feature","properties":{"CityName":"Warwick, Rhode Island","City":"Warwick","State":" Rhode Island","PercLossBy_2011":0.74,"PercLossBy_2012":1.15,"PercLossBy_2013":1.32,"PercLossBy_2014":1.11,"PercLossBy_2015":1.83,"PercLossBy_2016":1.97,"PercLossBy_2017":2.07},"geometry":{"type":"Point","coordinates":[-71.416111,41.700202]}},{"type":"Feature","properties":{"CityName":"Cicero, Illinois","City":"Cicero ","State":" Illinois","PercLossBy_2011":-0.14,"PercLossBy_2012":-0.31,"PercLossBy_2013":-0.35,"PercLossBy_2014":-0.13,"PercLossBy_2015":0.44,"PercLossBy_2016":1.12,"PercLossBy_2017":2.04},"geometry":{"type":"Point","coordinates":[-87.753945,41.845588]}},{"type":"Feature","properties":{"CityName":"Berwyn, Illinois","City":"Berwyn","State":" Illinois","PercLossBy_2011":-0.15,"PercLossBy_2012":-0.33,"PercLossBy_2013":-0.38,"PercLossBy_2014":-0.17,"PercLossBy_2015":0.39,"PercLossBy_2016":1.07,"PercLossBy_2017":1.99},"geometry":{"type":"Point","coordinates":[-87.793668,41.850587]}},{"type":"Feature","properties":{"CityName":"Hampton, Virginia","City":"Hampton","State":" Virginia","PercLossBy_2011":0.57,"PercLossBy_2012":0.18,"PercLossBy_2013":0.03,"PercLossBy_2014":-0.24,"PercLossBy_2015":0.76,"PercLossBy_2016":1.46,"PercLossBy_2017":1.95},"geometry":{"type":"Point","coordinates":[-76.345206,37.030097]}},{"type":"Feature","properties":{"CityName":"Battle Creek, Michigan","City":"Battle Creek","State":" Michigan","PercLossBy_2011":0.67,"PercLossBy_2012":0.94,"PercLossBy_2013":1.14,"PercLossBy_2014":1.18,"PercLossBy_2015":1.58,"PercLossBy_2016":1.79,"PercLossBy_2017":1.94},"geometry":{"type":"Point","coordinates":[-85.182427,42.319255]}}]}